{"meta":{"code":200,"requestId":"609441ad2d63ee01dc067881"},"response":{"venues":[{"id":"4b2836ecf964a520019124e3","name":"Ruth's Chris Steak House","location":{"address":"294, 115 - 9th Avenue SE","crossStreet":"2nd Floor of Calgary Tower","lat":51.0442241181576,"lng":-114.062804317791,"labeledLatLngs":[{"label":"display","lat":51.0442241181576,"lng":-114.062804317791}],"distance":53,"postalCode":"T2G 0P5","cc":"CA","city":"Calgary","state":"AB","country":"Canada","formattedAddress":["294, 115 - 9th Avenue SE (2nd Floor of Calgary Tower)","Calgary AB T2G 0P5","Canada"]},"categories":[{"id":"4bf58dd8d48988d1cc941735","name":"Steakhouse","pluralName":"Steakhouses","shortName":"Steakhouse","icon":{"prefix":"https:\/\/ss3.4sqi.net\/img\/categories_v2\/food\/steakhouse_","suffix":".png"},"primary":true}],"referralId":"v-1620328877","hasPerk":false},{"id":"4b0586e9f964a520c27422e3","name":"Calgary Tower","location":{"address":"101 9th Avenue SW","crossStreet":"at Centre St.","lat":51.044563097527984,"lng":-114.06330547812435,"labeledLatLngs":[{"label":"display","lat":51.044563097527984,"lng":-114.06330547812435}],"distance":22,"postalCode":"T2P 1J9","cc":"CA","city":"Calgary","state":"AB","country":"Canada","formattedAddress":["101 9th Avenue SW (at Centre St.)","Calgary AB T2P 1J9","Canada"]},"categories":[{"id":"4bf58dd8d48988d12d941735","name":"Monument \/ Landmark","pluralName":"Monuments \/ Landmarks","shortName":"Landmark","icon":{"prefix":"https:\/\/ss3.4sqi.net\/img\/categories_v2\/building\/government_monument_","suffix":".png"},"primary":true}],"referralId":"v-1620328877","hasPerk":false},{"id":"56902984498e604b35bb6f96","name":"Rolls-Royce Alberta","location":{"address":"112 9 Avenue SW","lat":51.04465678907416,"lng":-114.06317092938654,"labeledLatLngs":[{"label":"display","lat":51.04465678907416,"lng":-114.06317092938654}],"distance":9,"postalCode":"T2P 0T1","cc":"CA","city":"Calgary","state":"AB","country":"Canada","formattedAddress":["112 9 Avenue SW","Calgary AB T2P 0T1","Canada"]},"categories":[{"id":"4eb1c1623b7b52c0e1adc2ec","name":"Auto Dealership","pluralName":"Auto Dealerships","shortName":"Auto Dealer","icon":{"prefix":"https:\/\/ss3.4sqi.net\/img\/categories_v2\/shops\/automotive_","suffix":".png"},"primary":true}],"referralId":"v-1620328877","hasPerk":false},{"id":"5c7793e4835c9a003253112e","name":"Calgary Marriott Downtown Hotel","location":{"lat":51.044689,"lng":-114.062879,"labeledLatLngs":[{"label":"display","lat":51.044689,"lng":-114.062879}],"distance":11,"postalCode":"T2G 5A6","cc":"CA","city":"Calgary","state":"AB","country":"Canada","formattedAddress":["Calgary AB T2G 5A6","Canada"]},"categories":[{"id":"4bf58dd8d48988d1fa931735","name":"Hotel","pluralName":"Hotels","shortName":"Hotel","icon":{"prefix":"https:\/\/ss3.4sqi.net\/img\/categories_v2\/travel\/hotel_","suffix":".png"},"primary":true}],"referralId":"v-1620328877","hasPerk":false},{"id":"4b68f194f964a52032942be3","name":"Sky 360","location":{"address":"101 9 Ave SW","crossStreet":"Calgary Tower","lat":51.044575645578846,"lng":-114.06331507730984,"labeledLatLngs":[{"label":"display","lat":51.044575645578846,"lng":-114.06331507730984}],"distance":22,"cc":"CA","city":"Calgary","state":"AB","country":"Canada","formattedAddress":["101 9 Ave SW (Calgary Tower)","Calgary AB","Canada"]},"categories":[{"id":"4bf58dd8d48988d1c4941735","name":"Restaurant","pluralName":"Restaurants","shortName":"Restaurant","icon":{"prefix":"https:\/\/ss3.4sqi.net\/img\/categories_v2\/food\/default_","suffix":".png"},"primary":true}],"referralId":"v-1620328877","hasPerk":false},{"id":"559d60eb498e69497044effd","name":"RnR Wellness Spa Le Germaine","location":{"address":"899 Centre St SW","lat":51.0446296,"lng":-114.0630742,"labeledLatLngs":[{"label":"display","lat":51.0446296,"lng":-114.0630742}],"distance":6,"postalCode":"T2G 1B8","cc":"CA","city":"Calgary","state":"AB","country":"Canada","formattedAddress":["899 Centre St SW","Calgary AB T2G 1B8","Canada"]},"categories":[{"id":"4bf58dd8d48988d1ed941735","name":"Spa","pluralName":"Spas","shortName":"Spa","icon":{"prefix":"https:\/\/ss3.4sqi.net\/img\/categories_v2\/shops\/spa_","suffix":".png"},"primary":true}],"referralId":"v-1620328877","hasPerk":false},{"id":"4cfe6adb47699eb0c9b91515","name":"H&R Block","location":{"address":"Sears South Centre","lat":51.0446,"lng":-114.063,"labeledLatLngs":[{"label":"display","lat":51.0446,"lng":-114.063}],"distance":9,"postalCode":"T2J 3-J1","cc":"CA","city":"Calgary","state":"AB","country":"Canada","formattedAddress":["Sears South Centre","Calgary AB T2J 3-J1","Canada"]},"categories":[{"id":"503287a291d4c4b30a586d65","name":"Financial or Legal Service","pluralName":"Financial or Legal Services","shortName":"Financial \/ Legal","icon":{"prefix":"https:\/\/ss3.4sqi.net\/img\/categories_v2\/shops\/financial_","suffix":".png"},"primary":true}],"referralId":"v-1620328877","hasPerk":false},{"id":"4b0586e6f964a520a17322e3","name":"Calgary Marriott Downtown Hotel","location":{"address":"110 9th Avenue SE","lat":51.04483749763856,"lng":-114.06260093925084,"labeledLatLngs":[{"label":"display","lat":51.04483749763856,"lng":-114.06260093925084}],"distance":35,"postalCode":"T2G 5A6","cc":"CA","city":"Calgary","state":"AB","country":"Canada","formattedAddress":["110 9th Avenue SE","Calgary AB T2G 5A6","Canada"]},"categories":[{"id":"4bf58dd8d48988d1fa931735","name":"Hotel","pluralName":"Hotels","shortName":"Hotel","icon":{"prefix":"https:\/\/ss3.4sqi.net\/img\/categories_v2\/travel\/hotel_","suffix":".png"},"primary":true}],"venuePage":{"id":"131922162"},"referralId":"v-1620328877","hasPerk":false},{"id":"52f92dcf11d237a439890841","name":"one18empire","location":{"address":"820 Centre St S","lat":51.04484898877638,"lng":-114.06291399419197,"labeledLatLngs":[{"label":"display","lat":51.04484898877638,"lng":-114.06291399419197}],"distance":20,"postalCode":"T2G 5A6","cc":"CA","city":"Calgary","state":"AB","country":"Canada","formattedAddress":["820 Centre St S","Calgary AB T2G 5A6","Canada"]},"categories":[{"id":"4bf58dd8d48988d157941735","name":"New American Restaurant","pluralName":"New American Restaurants","shortName":"New American","icon":{"prefix":"https:\/\/ss3.4sqi.net\/img\/categories_v2\/food\/newamerican_","suffix":".png"},"primary":true}],"venuePage":{"id":"78619754"},"referralId":"v-1620328877","hasPerk":false},{"id":"57c576e5498e6c6da2550a41","name":"Calgary Marriott fitness center","location":{"address":"901 9th Ave","crossStreet":"Center","lat":51.044796,"lng":-114.062649,"labeledLatLngs":[{"label":"display","lat":51.044796,"lng":-114.062649}],"distance":30,"cc":"CA","city":"Calgary","state":"AB","country":"Canada","formattedAddress":["901 9th Ave (Center)","Calgary AB","Canada"]},"categories":[{"id":"4bf58dd8d48988d175941735","name":"Gym \/ Fitness Center","pluralName":"Gyms or Fitness Centers","shortName":"Gym \/ Fitness","icon":{"prefix":"https:\/\/ss3.4sqi.net\/img\/categories_v2\/building\/gym_","suffix":".png"},"primary":true}],"referralId":"v-1620328877","hasPerk":false}],"confident":false}}