{"businesses": [{"id": "kmOeRAvOL1oR6Z-4Ggdx6w", "alias": "charcut-roast-house-calgary", "name": "Charcut Roast House", "image_url": "https://s3-media1.fl.yelpcdn.com/bphoto/jK3aXob1cW9oZKBASDevBg/o.jpg", "is_closed": false, "url": "https://www.yelp.com/biz/charcut-roast-house-calgary?adjust_creative=ZJcZcWm1V4KzExD_ik8lRQ&utm_campaign=yelp_api_v3&utm_medium=api_v3_business_search&utm_source=ZJcZcWm1V4KzExD_ik8lRQ", "review_count": 327, "categories": [{"alias": "steak", "title": "Steakhouses"}], "rating": 4.0, "coordinates": {"latitude": 51.0447273741773, "longitude": -114.063369728203}, "transactions": [], "price": "$$$", "location": {"address1": "101-899 Centre Street S", "address2": "", "address3": "", "city": "Calgary", "zip_code": "T2G 1B8", "country": "CA", "state": "AB", "display_address": ["101-899 Centre Street S", "Calgary, AB T2G 1B8", "Canada"]}, "phone": "+14039842180", "display_phone": "+1 403-984-2180", "distance": 23.918142647474212}, {"id": "SKhV8mF40RcsGrJjkuEwvw", "alias": "ten-foot-henry-calgary", "name": "Ten Foot Henry", "image_url": "https://s3-media2.fl.yelpcdn.com/bphoto/781Tk4DkDJ8KzutAgzoKHg/o.jpg", "is_closed": false, "url": "https://www.yelp.com/biz/ten-foot-henry-calgary?adjust_creative=ZJcZcWm1V4KzExD_ik8lRQ&utm_campaign=yelp_api_v3&utm_medium=api_v3_business_search&utm_source=ZJcZcWm1V4KzExD_ik8lRQ", "review_count": 382, "categories": [{"alias": "newcanadian", "title": "Canadian (New)"}], "rating": 4.5, "coordinates": {"latitude": 51.0410899, "longitude": -114.06597}, "transactions": [], "price": "$$", "location": {"address1": "1209 1st Street SW", "address2": "", "address3": "", "city": "Calgary", "zip_code": "T2R 0V3", "country": "CA", "state": "AB", "display_address": ["1209 1st Street SW", "Calgary, AB T2R 0V3", "Canada"]}, "phone": "+14034755537", "display_phone": "+1 403-475-5537", "distance": 455.4245388279436}, {"id": "EWj6tgNVl9x8Z7u9nnqdwQ", "alias": "workshop-kitchen-culture-calgary", "name": "Workshop Kitchen + Culture", "image_url": "https://s3-media2.fl.yelpcdn.com/bphoto/O_Wk_AsiRblrgsPEsHk4ZQ/o.jpg", "is_closed": false, "url": "https://www.yelp.com/biz/workshop-kitchen-culture-calgary?adjust_creative=ZJcZcWm1V4KzExD_ik8lRQ&utm_campaign=yelp_api_v3&utm_medium=api_v3_business_search&utm_source=ZJcZcWm1V4KzExD_ik8lRQ", "review_count": 125, "categories": [{"alias": "newcanadian", "title": "Canadian (New)"}, {"alias": "venues", "title": "Venues & Event Spaces"}], "rating": 4.5, "coordinates": {"latitude": 51.04709, "longitude": -114.06489}, "transactions": [], "price": "$$", "location": {"address1": "608 1 Street SW", "address2": "", "address3": "", "city": "Calgary", "zip_code": "T2P 1M6", "country": "CA", "state": "AB", "display_address": ["608 1 Street SW", "Calgary, AB T2P 1M6", "Canada"]}, "phone": "+14032667062", "display_phone": "+1 403-266-7062", "distance": 312.67066180758655}, {"id": "gLUT5YFfZWUe5JbD-zNGfg", "alias": "one18-empire-calgary", "name": "One18 Empire", "image_url": "https://s3-media3.fl.yelpcdn.com/bphoto/1CvfL2dxfQf81wIUPlwKBg/o.jpg", "is_closed": false, "url": "https://www.yelp.com/biz/one18-empire-calgary?adjust_creative=ZJcZcWm1V4KzExD_ik8lRQ&utm_campaign=yelp_api_v3&utm_medium=api_v3_business_search&utm_source=ZJcZcWm1V4KzExD_ik8lRQ", "review_count": 79, "categories": [{"alias": "cocktailbars", "title": "Cocktail Bars"}, {"alias": "newcanadian", "title": "Canadian (New)"}, {"alias": "whiskeybars", "title": "Whiskey Bars"}], "rating": 4.0, "coordinates": {"latitude": 51.0449785065218, "longitude": -114.062875968123}, "transactions": [], "price": "$$", "location": {"address1": "820 Centre Street S", "address2": "", "address3": "", "city": "Calgary", "zip_code": "T2G 5J2", "country": "CA", "state": "AB", "display_address": ["820 Centre Street S", "Calgary, AB T2G 5J2", "Canada"]}, "phone": "+14032690299", "display_phone": "+1 403-269-0299", "distance": 35.027125071236775}, {"id": "iAhAnPxgKb6fzxrEcoHtlw", "alias": "oeb-breakfast-calgary-17", "name": "OEB Breakfast", "image_url": "https://s3-media2.fl.yelpcdn.com/bphoto/kzuZs2nVwWWCrjKM71Klug/o.jpg", "is_closed": false, "url": "https://www.yelp.com/biz/oeb-breakfast-calgary-17?adjust_creative=ZJcZcWm1V4KzExD_ik8lRQ&utm_campaign=yelp_api_v3&utm_medium=api_v3_business_search&utm_source=ZJcZcWm1V4KzExD_ik8lRQ", "review_count": 222, "categories": [{"alias": "breakfast_brunch", "title": "Breakfast & Brunch"}], "rating": 4.5, "coordinates": {"latitude": 51.04895218618998, "longitude": -114.06579523045187}, "transactions": [], "price": "$$", "location": {"address1": "222 5 Avenue SW", "address2": "Suite 110", "address3": null, "city": "Calgary", "zip_code": "T2P 4K3", "country": "CA", "state": "AB", "display_address": ["222 5 Avenue SW", "Suite 110", "Calgary, AB T2P 4K3", "Canada"]}, "phone": "+15873523447", "display_phone": "+1 587-352-3447", "distance": 512.711929111734}, {"id": "YpoIDLyRGhgciExGAHRQcw", "alias": "native-tongues-taqueria-calgary-2", "name": "Native Tongues Taqueria", "image_url": "https://s3-media2.fl.yelpcdn.com/bphoto/-XG94750J-LVCfgdeiO9LA/o.jpg", "is_closed": false, "url": "https://www.yelp.com/biz/native-tongues-taqueria-calgary-2?adjust_creative=ZJcZcWm1V4KzExD_ik8lRQ&utm_campaign=yelp_api_v3&utm_medium=api_v3_business_search&utm_source=ZJcZcWm1V4KzExD_ik8lRQ", "review_count": 357, "categories": [{"alias": "mexican", "title": "Mexican"}, {"alias": "cocktailbars", "title": "Cocktail Bars"}], "rating": 4.0, "coordinates": {"latitude": 51.041401, "longitude": -114.0675588}, "transactions": [], "price": "$$", "location": {"address1": "235 12 Avenue SW", "address2": "", "address3": "", "city": "Calgary", "zip_code": "T2R 1H7", "country": "CA", "state": "AB", "display_address": ["235 12 Avenue SW", "Calgary, AB T2R 1H7", "Canada"]}, "phone": "+14032639444", "display_phone": "+1 403-263-9444", "distance": 482.61851095377153}, {"id": "t8QL1WTAlkdGnTPwqEwDIA", "alias": "klein-harris-calgary-2", "name": "Klein Harris", "image_url": "https://s3-media3.fl.yelpcdn.com/bphoto/0a7ByicC4c_yLxbFe672rQ/o.jpg", "is_closed": false, "url": "https://www.yelp.com/biz/klein-harris-calgary-2?adjust_creative=ZJcZcWm1V4KzExD_ik8lRQ&utm_campaign=yelp_api_v3&utm_medium=api_v3_business_search&utm_source=ZJcZcWm1V4KzExD_ik8lRQ", "review_count": 55, "categories": [{"alias": "desserts", "title": "Desserts"}, {"alias": "newcanadian", "title": "Canadian (New)"}, {"alias": "cocktailbars", "title": "Cocktail Bars"}], "rating": 4.5, "coordinates": {"latitude": 51.04578, "longitude": -114.06369}, "transactions": [], "price": "$$", "location": {"address1": "110 8 Avenue SW", "address2": "", "address3": null, "city": "Calgary", "zip_code": "T2P 0W5", "country": "CA", "state": "AB", "display_address": ["110 8 Avenue SW", "Calgary, AB T2P 0W5", "Canada"]}, "phone": "+14032628100", "display_phone": "+1 403-262-8100", "distance": 135.81421153354378}, {"id": "xiWmyJyTa7o1H6uUNH2dEw", "alias": "saltlik-calgary", "name": "Saltlik", "image_url": "https://s3-media2.fl.yelpcdn.com/bphoto/xHkgWunZzFYZHN5Ghdq1fg/o.jpg", "is_closed": false, "url": "https://www.yelp.com/biz/saltlik-calgary?adjust_creative=ZJcZcWm1V4KzExD_ik8lRQ&utm_campaign=yelp_api_v3&utm_medium=api_v3_business_search&utm_source=ZJcZcWm1V4KzExD_ik8lRQ", "review_count": 146, "categories": [{"alias": "steak", "title": "Steakhouses"}, {"alias": "cocktailbars", "title": "Cocktail Bars"}, {"alias": "venues", "title": "Venues & Event Spaces"}], "rating": 3.5, "coordinates": {"latitude": 51.04543, "longitude": -114.06329}, "transactions": [], "price": "$$$", "location": {"address1": "101 8 Avenue SW", "address2": "", "address3": "", "city": "Calgary", "zip_code": "T2P 1B4", "country": "CA", "state": "AB", "display_address": ["101 8 Avenue SW", "Calgary, AB T2P 1B4", "Canada"]}, "phone": "+14035371160", "display_phone": "+1 403-537-1160", "distance": 71.983812307076}, {"id": "bFLEbPKUXmeQcBciGdHjww", "alias": "veg-in-yyc-calgary", "name": "Veg-In YYC", "image_url": "https://s3-media2.fl.yelpcdn.com/bphoto/zvnjh5iHHqtDspJgyBENmw/o.jpg", "is_closed": false, "url": "https://www.yelp.com/biz/veg-in-yyc-calgary?adjust_creative=ZJcZcWm1V4KzExD_ik8lRQ&utm_campaign=yelp_api_v3&utm_medium=api_v3_business_search&utm_source=ZJcZcWm1V4KzExD_ik8lRQ", "review_count": 75, "categories": [{"alias": "vegan", "title": "Vegan"}, {"alias": "vegetarian", "title": "Vegetarian"}, {"alias": "indpak", "title": "Indian"}], "rating": 4.5, "coordinates": {"latitude": 51.047194, "longitude": -114.059111}, "transactions": [], "price": "$$", "location": {"address1": "215 6th Avenue SE", "address2": "", "address3": "", "city": "Calgary", "zip_code": "T2G 0G4", "country": "CA", "state": "AB", "display_address": ["215 6th Avenue SE", "Calgary, AB T2G 0G4", "Canada"]}, "phone": "+15873515253", "display_phone": "+1 587-351-5253", "distance": 391.7060743805063}, {"id": "8dnH_PcGlzECcCGk_5yyww", "alias": "briggs-kitchen-bar-calgary", "name": "Briggs Kitchen + Bar", "image_url": "https://s3-media4.fl.yelpcdn.com/bphoto/1tBh2urGCcAIPHP9QHXE6Q/o.jpg", "is_closed": false, "url": "https://www.yelp.com/biz/briggs-kitchen-bar-calgary?adjust_creative=ZJcZcWm1V4KzExD_ik8lRQ&utm_campaign=yelp_api_v3&utm_medium=api_v3_business_search&utm_source=ZJcZcWm1V4KzExD_ik8lRQ", "review_count": 204, "categories": [{"alias": "cocktailbars", "title": "Cocktail Bars"}, {"alias": "sandwiches", "title": "Sandwiches"}, {"alias": "burgers", "title": "Burgers"}], "rating": 4.0, "coordinates": {"latitude": 51.043278139969, "longitude": -114.069278737921}, "transactions": [], "price": "$$", "location": {"address1": "100 - 317 10th Avenue SW", "address2": "", "address3": "", "city": "Calgary", "zip_code": "T2R 0A5", "country": "CA", "state": "AB", "display_address": ["100 - 317 10th Avenue SW", "Calgary, AB T2R 0A5", "Canada"]}, "phone": "+15873505015", "display_phone": "+1 587-350-5015", "distance": 463.43694898643287}, {"id": "5XXFsXKdPxCwHUuw2FeYpg", "alias": "calgary-tower-calgary", "name": "Calgary Tower", "image_url": "https://s3-media4.fl.yelpcdn.com/bphoto/2HX5-13yjnV8Zt8EJYsMug/o.jpg", "is_closed": false, "url": "https://www.yelp.com/biz/calgary-tower-calgary?adjust_creative=ZJcZcWm1V4KzExD_ik8lRQ&utm_campaign=yelp_api_v3&utm_medium=api_v3_business_search&utm_source=ZJcZcWm1V4KzExD_ik8lRQ", "review_count": 80, "categories": [{"alias": "landmarks", "title": "Landmarks & Historical Buildings"}], "rating": 4.0, "coordinates": {"latitude": 51.0443799, "longitude": -114.06313}, "transactions": [], "location": {"address1": "101-9th Avenue SW", "address2": "", "address3": "", "city": "Calgary", "zip_code": "T2P 1J9", "country": "CA", "state": "AB", "display_address": ["101-9th Avenue SW", "Calgary, AB T2P 1J9", "Canada"]}, "phone": "+14032667171", "display_phone": "+1 403-266-7171", "distance": 41.77646843580455}, {"id": "nQeS_ItxAxmkAhAu3R9t-A", "alias": "rosso-coffee-roasters-calgary-5", "name": "Rosso Coffee Roasters", "image_url": "https://s3-media2.fl.yelpcdn.com/bphoto/SzI03-FqoJZ7vOnI38AtcQ/o.jpg", "is_closed": false, "url": "https://www.yelp.com/biz/rosso-coffee-roasters-calgary-5?adjust_creative=ZJcZcWm1V4KzExD_ik8lRQ&utm_campaign=yelp_api_v3&utm_medium=api_v3_business_search&utm_source=ZJcZcWm1V4KzExD_ik8lRQ", "review_count": 60, "categories": [{"alias": "coffee", "title": "Coffee & Tea"}, {"alias": "breakfast_brunch", "title": "Breakfast & Brunch"}], "rating": 4.0, "coordinates": {"latitude": 51.045617, "longitude": -114.0612}, "transactions": [], "price": "$$", "location": {"address1": "140 8th Avenue SE", "address2": "", "address3": "", "city": "Calgary", "zip_code": "T2G 0K6", "country": "CA", "state": "AB", "display_address": ["140 8th Avenue SE", "Calgary, AB T2G 0K6", "Canada"]}, "phone": "+14032647900", "display_phone": "+1 403-264-7900", "distance": 165.3177273974554}, {"id": "4MlVKZ1ZbVA__MA-7D3gYQ", "alias": "vintage-chophouse-and-tavern-calgary", "name": "Vintage Chophouse and Tavern", "image_url": "https://s3-media2.fl.yelpcdn.com/bphoto/yiiR0yymz1lJTuuVZhXX4A/o.jpg", "is_closed": false, "url": "https://www.yelp.com/biz/vintage-chophouse-and-tavern-calgary?adjust_creative=ZJcZcWm1V4KzExD_ik8lRQ&utm_campaign=yelp_api_v3&utm_medium=api_v3_business_search&utm_source=ZJcZcWm1V4KzExD_ik8lRQ", "review_count": 140, "categories": [{"alias": "steak", "title": "Steakhouses"}, {"alias": "wine_bars", "title": "Wine Bars"}, {"alias": "seafood", "title": "Seafood"}], "rating": 4.0, "coordinates": {"latitude": 51.042678, "longitude": -114.068379}, "transactions": [], "price": "$$$", "location": {"address1": "320 11 Avenue SW", "address2": "", "address3": "", "city": "Calgary", "zip_code": "T2R 0C5", "country": "CA", "state": "AB", "display_address": ["320 11 Avenue SW", "Calgary, AB T2R 0C5", "Canada"]}, "phone": "+14032627262", "display_phone": "+1 403-262-7262", "distance": 434.8392095574386}, {"id": "336_K7i9-jrEhvQleGUVQw", "alias": "grumans-catering-and-delicatessen-calgary-2", "name": "Grumans Catering & Delicatessen", "image_url": "https://s3-media2.fl.yelpcdn.com/bphoto/HYIZldNST2FyYRTPAZf1EA/o.jpg", "is_closed": false, "url": "https://www.yelp.com/biz/grumans-catering-and-delicatessen-calgary-2?adjust_creative=ZJcZcWm1V4KzExD_ik8lRQ&utm_campaign=yelp_api_v3&utm_medium=api_v3_business_search&utm_source=ZJcZcWm1V4KzExD_ik8lRQ", "review_count": 83, "categories": [{"alias": "delis", "title": "Delis"}, {"alias": "newcanadian", "title": "Canadian (New)"}, {"alias": "breakfast_brunch", "title": "Breakfast & Brunch"}], "rating": 4.5, "coordinates": {"latitude": 51.0425902662698, "longitude": -114.059270783894}, "transactions": [], "price": "$$", "location": {"address1": "230 11th Avenue SE", "address2": "", "address3": "", "city": "Calgary", "zip_code": "T2G 0X8", "country": "CA", "state": "AB", "display_address": ["230 11th Avenue SE", "Calgary, AB T2G 0X8", "Canada"]}, "phone": "+14032619003", "display_phone": "+1 403-261-9003", "distance": 351.1201500045762}, {"id": "LKzDrKa0FRrRATi1gqPEiw", "alias": "murrietas-west-coast-bar-and-grill-calgary-2", "name": "Murrieta's West Coast Bar & Grill", "image_url": "https://s3-media4.fl.yelpcdn.com/bphoto/kO1Q5bLGkKfJF9UB0dRWOA/o.jpg", "is_closed": false, "url": "https://www.yelp.com/biz/murrietas-west-coast-bar-and-grill-calgary-2?adjust_creative=ZJcZcWm1V4KzExD_ik8lRQ&utm_campaign=yelp_api_v3&utm_medium=api_v3_business_search&utm_source=ZJcZcWm1V4KzExD_ik8lRQ", "review_count": 96, "categories": [{"alias": "wine_bars", "title": "Wine Bars"}, {"alias": "seafood", "title": "Seafood"}, {"alias": "steak", "title": "Steakhouses"}], "rating": 4.0, "coordinates": {"latitude": 51.0454017, "longitude": -114.0652789}, "transactions": [], "price": "$$$", "location": {"address1": "808 1st Street SW", "address2": "Suite 200", "address3": "", "city": "Calgary", "zip_code": "T2P 1M9", "country": "CA", "state": "AB", "display_address": ["808 1st Street SW", "Suite 200", "Calgary, AB T2P 1M9", "Canada"]}, "phone": "+14032697707", "display_phone": "+1 403-269-7707", "distance": 167.01162028372173}, {"id": "bwpvo0hDKzHzZoak0vFqBQ", "alias": "ruths-chris-steak-house-calgary-3", "name": "Ruth's Chris Steak House", "image_url": "https://s3-media3.fl.yelpcdn.com/bphoto/xUh78V-A67Qkrd9jEVw__w/o.jpg", "is_closed": false, "url": "https://www.yelp.com/biz/ruths-chris-steak-house-calgary-3?adjust_creative=ZJcZcWm1V4KzExD_ik8lRQ&utm_campaign=yelp_api_v3&utm_medium=api_v3_business_search&utm_source=ZJcZcWm1V4KzExD_ik8lRQ", "review_count": 78, "categories": [{"alias": "steak", "title": "Steakhouses"}], "rating": 4.0, "coordinates": {"latitude": 51.044196, "longitude": -114.062799}, "transactions": [], "price": "$$$$", "location": {"address1": "115 9 Avenue SE", "address2": "Suite 294", "address3": "", "city": "Calgary", "zip_code": "T2G 0P5", "country": "CA", "state": "AB", "display_address": ["115 9 Avenue SE", "Suite 294", "Calgary, AB T2G 0P5", "Canada"]}, "phone": "+14032463636", "display_phone": "+1 403-246-3636", "distance": 56.31100690762142}, {"id": "m7ommfJFalI47UksyX04Iw", "alias": "the-palomino-calgary", "name": "The Palomino", "image_url": "https://s3-media4.fl.yelpcdn.com/bphoto/_D_XCF5NkGe0AE1WS6vcow/o.jpg", "is_closed": false, "url": "https://www.yelp.com/biz/the-palomino-calgary?adjust_creative=ZJcZcWm1V4KzExD_ik8lRQ&utm_campaign=yelp_api_v3&utm_medium=api_v3_business_search&utm_source=ZJcZcWm1V4KzExD_ik8lRQ", "review_count": 122, "categories": [{"alias": "bbq", "title": "Barbeque"}, {"alias": "musicvenues", "title": "Music Venues"}, {"alias": "bars", "title": "Bars"}], "rating": 3.5, "coordinates": {"latitude": 51.0463276, "longitude": -114.0635792}, "transactions": [], "price": "$$", "location": {"address1": "109 7 Ave SW", "address2": "", "address3": "", "city": "Calgary", "zip_code": "T2P 0W5", "country": "CA", "state": "AB", "display_address": ["109 7 Ave SW", "Calgary, AB T2P 0W5", "Canada"]}, "phone": "+14035321911", "display_phone": "+1 403-532-1911", "distance": 187.09879080358652}, {"id": "Tmj6c74wRTqvBvWHqlFFzQ", "alias": "sky-360-calgary", "name": "Sky 360", "image_url": "https://s3-media2.fl.yelpcdn.com/bphoto/Ly3FitOWsAdHMSODn2wBRw/o.jpg", "is_closed": false, "url": "https://www.yelp.com/biz/sky-360-calgary?adjust_creative=ZJcZcWm1V4KzExD_ik8lRQ&utm_campaign=yelp_api_v3&utm_medium=api_v3_business_search&utm_source=ZJcZcWm1V4KzExD_ik8lRQ", "review_count": 154, "categories": [{"alias": "newcanadian", "title": "Canadian (New)"}], "rating": 3.0, "coordinates": {"latitude": 51.0443799, "longitude": -114.06313}, "transactions": [], "price": "$$$", "location": {"address1": "101 9 Ave SW", "address2": "", "address3": "", "city": "Calgary", "zip_code": "T2P 1J9", "country": "CA", "state": "AB", "display_address": ["101 9 Ave SW", "Calgary, AB T2P 1J9", "Canada"]}, "phone": "+14035327966", "display_phone": "+1 403-532-7966", "distance": 41.77646843580455}, {"id": "BGX5dWkh-0jl4_wpSaWtbg", "alias": "teatro-calgary", "name": "Teatro", "image_url": "https://s3-media2.fl.yelpcdn.com/bphoto/LXiikdZ6bJh-ByuwExJDBQ/o.jpg", "is_closed": false, "url": "https://www.yelp.com/biz/teatro-calgary?adjust_creative=ZJcZcWm1V4KzExD_ik8lRQ&utm_campaign=yelp_api_v3&utm_medium=api_v3_business_search&utm_source=ZJcZcWm1V4KzExD_ik8lRQ", "review_count": 96, "categories": [{"alias": "italian", "title": "Italian"}, {"alias": "mediterranean", "title": "Mediterranean"}], "rating": 3.5, "coordinates": {"latitude": 51.045712, "longitude": -114.060287}, "transactions": [], "price": "$$$", "location": {"address1": "200 8th Avenue SE", "address2": "", "address3": "", "city": "Calgary", "zip_code": "T2G 0K7", "country": "CA", "state": "AB", "display_address": ["200 8th Avenue SE", "Calgary, AB T2G 0K7", "Canada"]}, "phone": "+14032901012", "display_phone": "+1 403-290-1012", "distance": 223.83323914858855}, {"id": "LlJn7Q7Ow0lwQpk4gg0KeQ", "alias": "milestones-calgary-3", "name": "Milestones", "image_url": "https://s3-media4.fl.yelpcdn.com/bphoto/KAxbP23tLLpNWFKMc_q-UQ/o.jpg", "is_closed": false, "url": "https://www.yelp.com/biz/milestones-calgary-3?adjust_creative=ZJcZcWm1V4KzExD_ik8lRQ&utm_campaign=yelp_api_v3&utm_medium=api_v3_business_search&utm_source=ZJcZcWm1V4KzExD_ik8lRQ", "review_count": 95, "categories": [{"alias": "newcanadian", "title": "Canadian (New)"}, {"alias": "bars", "title": "Bars"}, {"alias": "steak", "title": "Steakhouses"}], "rating": 3.5, "coordinates": {"latitude": 51.0453619, "longitude": -114.0626244}, "transactions": [], "price": "$$", "location": {"address1": "107 8th Avenue SE", "address2": "", "address3": "", "city": "Calgary", "zip_code": "T2G 0K4", "country": "CA", "state": "AB", "display_address": ["107 8th Avenue SE", "Calgary, AB T2G 0K4", "Canada"]}, "phone": "+14034109521", "display_phone": "+1 403-410-9521", "distance": 86.98131841546225}], "total": 216, "region": {"center": {"longitude": -114.063036, "latitude": 51.04468}}}